     2.11           OBSERVATION DATA    M (MIXED)           RINEX VERSION / TYPE
teqc  2019Feb25                         20190302 08:14:50UTCPGM / RUN BY / DATE
Linux2.6.32-573.12.1.el6.x86_64|x86_64|gcc|Win64-MinGW64|=+ COMMENT
NetR9 5.33          SMO                 20181205 001321 UTC COMMENT
gfzrnx-1.12-7590    FILE CONVERSION     20190302 073459 UTC COMMENT
HKLM                                                        MARKER NAME
23007M001                                                   MARKER NUMBER
SMO                 Lands Department HKSAR                  OBSERVER / AGENCY
5337K45560          TRIMBLE NETR9       5.33                REC # / TYPE / VERS
5320354684          TRM59800.00     SCIS                    ANT # / TYPE
        0.0083        0.0000        0.0000                  ANTENNA: DELTA H/E/N
 -2414045.9447  5391602.3519  2396878.8893                  APPROX POSITION XYZ
                                                            COMMENT
*********************************************************** COMMENT
*                 WARNING - FORMAT CONVERSION             * COMMENT
* ------------------------------------------------------- * COMMENT
*  The data values: observation, loss of lock (LLI) and   * COMMENT
*  signal strength (SSI) indicators are left as they are. * COMMENT
*    The LLI meaning differs between versions 2 and 3     * COMMENT
*    and the Interpretation of bit 1 and 2 has to be      * COMMENT
*                   used with caution !!!                 * COMMENT
*********************************************************** COMMENT
                                                            COMMENT
RINEX 3 -> 2 TYPE CONVERSION DETAILS:                       COMMENT
-------------------------------------                       COMMENT
   C C1I -> C2                                              COMMENT
   C C7I -> C7                                              COMMENT
   C L1I -> L2                                              COMMENT
   C L7I -> L7                                              COMMENT
   C S1I -> S2                                              COMMENT
   C S7I -> S7                                              COMMENT
-------------------------------------                       COMMENT
   E C1X -> C1                                              COMMENT
   E C5X -> C5                                              COMMENT
   E C7X -> C7                                              COMMENT
   E C8X -> C8                                              COMMENT
   E L1X -> L1                                              COMMENT
   E L5X -> L5                                              COMMENT
   E L7X -> L7                                              COMMENT
   E L8X -> L8                                              COMMENT
   E S1X -> S1                                              COMMENT
   E S5X -> S5                                              COMMENT
   E S7X -> S7                                              COMMENT
   E S8X -> S8                                              COMMENT
-------------------------------------                       COMMENT
   G C1C -> C1                                              COMMENT
   G C2X -> C2                                              COMMENT
   G C5X -> C5                                              COMMENT
   G L1C -> L1                                              COMMENT
   G L2W -> L2                                              COMMENT
   G L5X -> L5                                              COMMENT
   G C2W -> P2                                              COMMENT
   G S1C -> S1                                              COMMENT
   G S2W -> S2                                              COMMENT
   G S5X -> S5                                              COMMENT
-------------------------------------                       COMMENT
   J C1X -> C1                                              COMMENT
   J C2X -> C2                                              COMMENT
   J C5X -> C5                                              COMMENT
   J L1X -> L1                                              COMMENT
   J L2X -> L2                                              COMMENT
   J L5X -> L5                                              COMMENT
   J S1X -> S1                                              COMMENT
   J S2X -> S2                                              COMMENT
   J S5X -> S5                                              COMMENT
-------------------------------------                       COMMENT
   R C1C -> C1                                              COMMENT
   R C2C -> C2                                              COMMENT
   R L1P -> L1                                              COMMENT
   R L2P -> L2                                              COMMENT
   R C1P -> P1                                              COMMENT
   R C2P -> P2                                              COMMENT
   R S1P -> S1                                              COMMENT
   R S2P -> S2                                              COMMENT
-------------------------------------                       COMMENT
   S C1C -> C1                                              COMMENT
   S L1C -> L1                                              COMMENT
   S S1C -> S1                                              COMMENT
-------------------------------------                       COMMENT
                                                            COMMENT
    17    C1    C2    C5    C7    C8    L1    L2    L5    L7# / TYPES OF OBSERV
          L8    P1    P2    S1    S2    S5    S7    S8      # / TYPES OF OBSERV
    18                                                      LEAP SECONDS
                                                            COMMENT
EPOCH COUNT     m00  m10  m20  m30  m40  m50                COMMENT
               ---- ---- ---- ---- ---- ----                COMMENT
          A      20   20   20   20   20   20                COMMENT
          B      20   20   20   20   20   20                COMMENT
          C      20   20   20   20   20   20                COMMENT
          D      20   20   20   20   20   20                COMMENT
          E      20   20   20   20   20   20                COMMENT
          F      20   20   20   20   20   20                COMMENT
          G      20   20   20   20   20   20                COMMENT
          H      20   20   20   20   20   20                COMMENT
          I      20   20   20   20   20   20                COMMENT
          J      20   20   20   20   20   20                COMMENT
          K      20   20   20   20   20   20                COMMENT
          L      20   20   20   20   20   20                COMMENT
          M      20   20   20   20   20   20                COMMENT
          N      20   20   20   20   20   20                COMMENT
          O      20   20   20   20   20   20                COMMENT
          P      20   20   20   20   20   20                COMMENT
          Q      20   20   20   20   20   20                COMMENT
          R      20   20   20   20   20   20                COMMENT
          S      20   20   20   20   20   20                COMMENT
          T      20   20   20   20   20   20                COMMENT
          U      20   20   20   20   20   20                COMMENT
          V      20   20   20   20   20   20                COMMENT
          W      20   20   20   20   20   20                COMMENT
          X      20   20   20   20   20   20                COMMENT
    30.0000                                                 INTERVAL
teqc edited: all GLONASS satellites excluded                COMMENT
teqc edited: all SBAS satellites excluded                   COMMENT
teqc edited: all Galileo satellites excluded                COMMENT
teqc edited: all Beidou satellites excluded                 COMMENT
teqc edited: all QZSS satellites excluded                   COMMENT
  2018    12     4     0     0    0.0000000     GPS         TIME OF FIRST OBS
                                                            END OF HEADER
 18 12  4  0  0  0.0000000  0  9G02G05G06G12G13G15G17G19G25
  21740500.195 7
 114247057.826 7  89023732.319 6
                  21740504.320 6        47.200          39.400

  20725208.422 8  20725214.672 8
 108911680.177 8  84866278.660 7
                  20725214.961 7        50.900          43.700

  22159977.336 7  22159987.219 7  22159986.672 8
 116451349.537 7  90741429.327 5  86960499.730 8
                  22159987.105 5        44.200          35.900          49.700

  22835998.867 7  22836005.773 6
 120004011.005 7  93509609.743 5
                  22836005.621 5        46.200          31.800

  22726137.758 7
 119426693.823 7  93059762.420 4
                  22726144.777 4        42.600          29.400

  25302173.086 6  25302179.902 5
 132963820.225 6 103608199.789 2
                  25302179.453 2        40.600          17.800

  23767030.984 6  23767039.199 6
 124896584.434 6  97321982.474 4
                  23767039.703 4        39.700          25.100

  22082060.750 7
 116041973.274 7  90422351.501 6
                  22082066.395 6        45.200          38.300

  24278585.133 6  24278594.836 6  24278594.520 7
 127584723.793 6  99416760.868 4  95274361.032 7
                  24278594.457 4        40.800          25.100          45.600

 18 12  4  0  0 30.0000000  0  9G02G05G06G12G13G15G17G19G25
  21734899.984 7
 114217629.306 7  89000801.004 6
                  21734904.043 6        46.800          39.300

  20724198.680 8  20724205.027 8
 108906374.194 8  84862144.124 7
                  20724205.137 7        50.500          43.100

  22164627.703 7  22164637.508 7  22164637.184 8
 116475787.229 7  90760471.662 5  86978748.611 8
                  22164637.578 5        45.000          35.700          50.000

  22844676.391 7  22844682.926 6
 120049609.560 7  93545141.073 5
                  22844682.711 5        45.200          31.100

  22707303.219 7
 119327717.195 7  92982637.791 4
                  22707310.070 4        42.700          28.900

  25280569.484 6  25280577.770 6
 132850291.480 6 103519735.826 3
                  25280577.176 3        37.000          19.900

  23785831.352 7  23785838.898 6
 124995374.825 7  97398961.928 4
                  23785839.012 4        42.300          26.800

  22097465.234 7
 116122924.783 7  90485430.556 6
                  22097470.973 6        45.200          37.300

  24279327.836 6  24279337.500 6  24279336.980 7
 127588626.774 6  99419802.125 4  95277275.576 7
                  24279337.176 4        38.800          24.000          44.600

 18 12  4  0  1  0.0000000  0  9G02G05G06G12G13G15G17G19G25
  21729305.789 7
 114188229.075 7  88977891.712 6
                  21729309.281 6        47.200          39.700

  20723254.789 8  20723261.023 8
 108901413.144 8  84858278.362 7
                  20723261.129 7        50.600          42.700

  22169303.078 7  22169313.004 7  22169312.301 8
 116500354.879 7  90779615.242 5  86997094.541 8
                  22169312.480 5        44.900          35.900          49.800

  22853419.102 7  22853425.609 6
 120095551.934 7  93580940.300 5
                  22853425.172 5        46.400          30.900

  22688497.484 7
 119228892.737 7  92905631.727 4
                  22688504.203 4        43.000          29.600

  25258954.602 6  25258963.258 6
 132736707.710 6 103431229.079 3
                  25258963.375 3        37.200          19.600

  23804674.484 6  23804682.895 6
 125094400.482 6  97476124.624 4
                  23804682.617 4        41.400          24.800

  22112939.570 7
 116204240.264 7  90548793.227 6
                  22112944.609 6        45.800          37.000

  24280155.539 6  24280164.820 6  24280165.285 7
 127592977.023 6  99423191.876 3  95280524.089 7
                  24280164.777 3        39.200          21.500          45.400

 18 12  4  0  1 30.0000000  0  9G02G05G06G12G13G15G17G19G25
  21723716.500 7
 114158858.135 7  88955005.226 6
                  21723720.156 6        47.000          39.700

  20722375.875 8  20722382.328 7
 108896795.181 8  84854679.940 7
                  20722382.238 7        50.300          43.600

  22174002.602 7  22174012.406 7  22174012.820 8
 116525053.301 7  90798860.716 5  87015538.126 8
                  22174012.336 5        44.000          35.600          50.100

  22862226.336 7  22862232.434 6
 120141835.055 7  93617005.059 5
                  22862232.727 5        45.900          30.900

  22669720.977 7
 119130223.202 7  92828746.367 4
                  22669728.027 4        42.500          28.300

  25237330.914 6  25237338.160 5
 132623071.326 6 103342681.243 2
                  25237339.125 2        39.200          17.400

  23823563.250 7  23823571.141 6
 125193658.347 7  97553468.272 4
                  23823571.023 4        42.300          25.800

  22128481.555 7
 116285917.300 7  90612437.646 6
                  22128487.488 6        45.000          37.500

  24281068.453 6  24281077.973 6  24281078.020 7
 127597772.776 6  99426928.826 3  95284105.315 7
                  24281077.836 3        36.500          21.500          44.700

 18 12  4  0  2  0.0000000  0  9G02G05G06G12G13G15G17G19G25
  21718133.461 7
 114129517.557 7  88932142.417 6
                  21718136.836 6        46.700          39.400

  20721561.891 8  20721568.328 8
 108892518.587 8  84851347.517 7
                  20721568.633 7        50.300          43.000

  22178727.836 7  22178737.641 7  22178737.914 8
 116549883.341 7  90818208.776 5  87034079.991 8
                  22178737.336 5        44.400          35.500          49.500

  22871098.047 7  22871104.422 6
 120188455.595 7  93653332.733 5
                  22871104.246 5        45.600          30.200

  22650974.930 7
 119031711.382 7  92751983.894 4
                  22650981.539 4        42.700          29.600

  25215696.422 6  25215702.996 4
 132509383.797 6 103254093.435 2
                  25215704.117 2        37.500          14.800

  23842495.320 6  23842503.160 6
 125293145.874 6  97630990.917 3
                  23842503.320 3        41.200          23.800

  22144093.070 7
 116367954.060 7  90676362.351 6
                  22144098.785 6        45.300          37.800

  24282064.789 5  24282074.953 6  24282074.449 7
 127603012.453 5  99431011.687 3  95288018.043 7
                  24282074.695 3        35.200          19.000          43.900

 18 12  4  0  2 30.0000000  0  9G02G05G06G12G13G15G17G19G25
  21712555.922 7
 114100208.056 7  88909303.843 6
                  21712559.539 6        47.200          39.600

  20720812.891 8  20720819.270 8
 108888581.794 8  84848279.879 7
                  20720819.465 7        50.300          42.700

  22183478.094 7  22183487.738 7  22183488.371 8
 116574845.796 7  90837659.989 5  87052720.740 8
                  22183487.164 5        44.100          35.400          49.700

  22880033.516 7  22880039.309 6
 120235410.827 7  93689921.185 5
                  22880039.629 5        45.300          30.600

  22632258.969 7
 118933359.983 7  92675346.464 5
                  22632266.516 5        42.500          30.000

  25194053.516 6  25194060.727 5
 132395647.373 6 103165467.621 2
                  25194060.363 2        38.300          16.300

  23861469.914 6  23861478.809 6
 125392860.667 6  97708690.646 4
                  23861478.176 4        39.500          25.100

  22159772.141 7
 116450348.518 7  90740565.796 6
                  22159777.730 6        45.900          37.900

  24283145.586 5  24283156.816 6  24283155.699 7
 127608694.571 5  99435439.226 3  95292261.068 7
                  24283156.285 3        34.300          19.300          43.100

 18 12  4  0  3  0.0000000  0  9G02G05G06G12G13G15G17G19G25
  21706984.719 7
 114070931.324 7  88886490.795 6
                  21706988.504 6        47.200          39.700

  20720128.414 8  20720134.531 8
 108884983.790 8  84845476.247 7
                  20720134.719 7        50.200          43.300

  22188254.109 7  22188263.836 7  22188263.805 8
 116599942.399 7  90857215.740 5  87071461.658 8
                  22188263.336 5        43.800          34.900          49.900

  22889031.703 7  22889038.152 6
 120282698.524 7  93726768.698 4
                  22889038.363 4        45.200          29.800

  22613575.344 7
 118835173.094 7  92598837.199 4
                  22613582.027 4        42.800          29.500

  25172401.820 6  25172409.039 5
 132281865.244 6 103076806.182 3
                  25172409.113 3        40.400          19.600

  23880488.500 6  23880496.375 6
 125492801.280 6  97786566.293 4
                  23880496.340 4        40.700          25.200

  22175519.234 7
 116533099.412 7  90805046.977 6
                  22175524.609 6        45.500          38.100

  24284312.273 5  24284321.332 6  24284320.730 7
 127614818.214 5  99440210.841 3  95296833.852 7
                  24284321.246 3        35.900          20.100          42.000

 18 12  4  0  3 30.0000000  0  9G02G05G06G12G13G15G17G19G25
  21701419.922 7
 114041688.834 7  88863704.426 6
                  21701423.887 6        47.600          40.300

  20719508.055 8  20719514.047 8
 108881722.977 8  84842935.356 7
                  20719514.188 7        50.600          43.100

  22193055.047 7  22193065.301 7  22193064.973 8
 116625173.825 7  90876876.531 5  87090303.255 8
                  22193064.906 5        44.100          35.000          49.500

  22898092.953 7  22898099.320 6
 120330315.337 7  93763872.684 4
                  22898098.992 4        44.600          29.600

  22594922.586 7
 118737153.168 7  92522458.052 4
                  22594929.297 4        42.900          28.200

  25150740.984 6  25150748.742 5
 132168039.502 6 102988110.747 3
                  25150749.148 3        37.700          18.600

  23899548.922 7  23899557.395 6
 125592965.268 7  97864615.994 4
                  23899557.340 4        42.000          26.500

  22191333.352 7
 116616204.582 7  90869804.212 6
                  22191339.316 6        45.300          37.100

  24285560.320 6  24285570.629 6  24285569.031 6
 127621381.663 6  99445325.162 3  95301735.080 6
                  24285570.398 3        37.300          20.100          40.900

 18 12  4  0  4  0.0000000  0  9G02G05G06G12G13G15G17G19G25
  21695861.547 7
 114012481.996 7  88840945.832 6
                  21695865.953 6        46.900          39.600

  20718951.398 8  20718957.617 8
 108878798.334 8  84840656.413 7
                  20718957.469 7        50.600          43.200

  22197882.883 7  22197892.352 7  22197892.262 8
 116650541.526 7  90896643.547 5  87109246.624 8
                  22197892.891 5        43.700          35.000          49.000

  22907216.492 7  22907222.773 6
 120378259.046 7  93801231.376 4
                  22907222.813 4        44.600          29.400

  22576302.297 7
 118639303.402 7  92446211.487 4
                  22576308.703 4        43.100          29.400

  25129073.078 6  25129080.891 6
 132054172.362 6 102899383.173 3
                  25129081.523 3        36.500          19.000

  23918651.555 6  23918660.258 6
 125693350.299 6  97942837.973 4
                  23918660.363 4        40.800          26.000

  22207215.703 7
 116699662.702 7  90934836.474 6
                  22207220.727 6        45.400          37.200

  24286894.133 6  24286903.199 6  24286902.660 7
 127628383.731 6  99450781.264 3  95306963.851 7
                  24286903.477 3        37.400          20.900          42.200

 18 12  4  0  4 30.0000000  0  9G02G05G06G12G13G15G17G19G25
  21690311.094 7
 113983312.093 7  88818216.005 6
                  21690315.113 6        46.900          40.100

  20718458.727 8  20718464.813 8
 108876208.604 8  84838638.422 7
                  20718464.699 7        50.700          42.900

  22202736.266 7  22202746.340 7  22202745.684 8
 116676046.763 7  90916517.714 5  87128292.694 8
                  22202746.242 5        44.300          35.200          49.300

  22916401.648 7  22916408.125 6
 120426526.766 7  93838842.537 4
                  22916407.750 4        44.600          29.000

  22557714.805 7
 118541627.095 7  92370100.069 4
                  22557721.520 4        43.000          28.600

  25107397.719 6  25107405.695 6
 131940266.612 6 102810625.468 3
                  25107405.938 3        38.400          19.000

  23937796.563 6  23937804.555 6
 125793954.539 6  98021230.774 4
                  23937805.367 4        41.700          24.100

  22223163.750 7
 116783471.875 7  91000142.295 6
                  22223169.301 6        45.400          36.700

  24288309.281 6  24288318.953 6  24288318.988 7
 127635823.239 6  99456578.253 3  95312519.287 7
                  24288318.746 3        37.300          21.300          43.000

 18 12  4  0  5  0.0000000  0  9G02G05G06G12G13G15G17G19G25
  21684767.484 7
 113954179.710 7  88795515.433 6
                  21684771.824 6        46.700          40.400

  20718029.070 8  20718034.980 8
 108873951.489 8  84836879.623 7
                  20718035.418 7        50.400          42.800

  22207615.742 7  22207625.852 7  22207625.535 8
 116701689.836 7  90936499.302 5  87147441.714 8
                  22207625.742 5        43.200          34.700          49.000

  22925647.375 7  22925653.516 6
 120475114.864 7  93876703.389 4
                  22925654.602 4        43.900          29.200

  22539161.039 7
 118444126.536 7  92294125.616 5
                  22539168.242 5        43.300          30.100

  25085714.070 6  25085722.570 5
 131826323.731 6 102721838.833 2
                  25085722.266 2        37.900          17.800

  23956981.313 6  23956990.230 6
 125894774.836 6  98099791.886 3
                  23956990.840 3        40.700          22.600

  22239178.555 7
 116867629.490 7  91065719.621 6
                  22239183.848 6        45.800          37.300

  24289807.758 5  24289817.453 6  24289817.152 7
 127643697.991 5  99462714.377 3  95318399.722 7
                  24289817.309 3        35.000          21.100          42.700

 18 12  4  0  5 30.0000000  0  9G02G05G06G12G13G15G17G19G25
  21679231.258 7
 113925086.583 7  88772845.460 6
                  21679235.273 6        47.200          39.700

  20717662.477 8  20717668.625 8
 108872025.388 8  84835378.756 7
                  20717668.555 7        50.100          43.400

  22212522.313 7  22212532.023 7  22212531.465 8
 116727472.092 7  90956589.320 5  87166694.640 8
                  22212532.266 5        43.000          34.500          48.900

  22934953.648 7  22934960.242 6
 120524020.632 7  93914811.725 4
                  22934960.305 4        44.500          28.900

  22520641.453 7
 118346805.104 7  92218290.756 4
                  22520648.328 4        43.100          29.200

  25064025.320 6  25064029.945 4
 131712346.338 6 102633025.233 2
                  25064032.004 2        37.900          15.600

  23976207.867 6  23976216.203 6
 125995809.364 6  98178519.953 3
                  23976216.875 3        40.000          22.500

  22255259.258 7
 116952134.146 7  91131567.367 6
                  22255264.871 6        45.300          36.800

  24291388.164 6  24291398.434 6  24291398.203 7
 127652006.732 6  99469188.649 3  95324604.208 7
                  24291398.590 3        37.100          21.700          42.100

 18 12  4  0  6  0.0000000  0  9G02G05G06G12G13G15G17G19G25
  21673702.969 7
 113896034.502 7  88750207.481 6
                  21673706.688 6        46.800          40.200

  20717359.031 8  20717365.047 8
 108870430.337 8  84834135.843 7
                  20717365.191 7        50.200          43.000

  22217454.969 7  22217465.191 7  22217465.180 8
 116753395.368 7  90976789.245 5  87186052.877 8
                  22217464.953 5        42.100          33.900          48.800

  22944320.242 7  22944327.055 6
 120573242.329 7  93953166.276 4
                  22944326.574 4        43.400          29.200

  22502156.898 7
 118249666.426 7  92142598.302 4
                  22502163.773 4        43.600          29.900

  25042330.625 6  25042337.598 5
 131598337.311 6 102544186.982 3
                  25042337.648 3        38.400          18.600

  23995474.625 6  23995483.543 6
 126097056.376 6  98257413.593 3
                  23995483.355 3        40.100          22.800

  22271405.758 7
 117036984.307 7  91197684.330 6
                  22271411.238 6        45.400          37.600

  24293052.547 6  24293061.898 6  24293061.699 7
 127660748.540 6  99476000.432 3  95331132.162 7
                  24293062.453 3        37.500          22.500          44.000

 18 12  4  0  6 30.0000000  0  9G02G05G06G12G13G15G17G19G25
  21668182.531 7
 113867024.448 7  88727602.233 6
                  21668186.414 6        46.800          40.200

  20717118.047 8  20717124.438 8
 108869164.177 8  84833149.211 7
                  20717124.281 7        50.300          42.400

  22222415.000 7  22222424.891 7  22222424.660 8
 116779460.313 7  90997099.578 5  87205516.943 8
                  22222425.102 5        42.200          33.500          48.800

  22953746.305 7  22953752.570 6
 120622776.700 7  93991764.438 4
                  22953752.688 4        43.600          28.300

  22483706.859 7
 118152713.427 7  92067050.525 4
                  22483714.027 4        42.900          29.800

  25020630.117 6  25020638.105 5
 131484299.289 6 102455326.215 2
                  25020637.727 2        38.100          17.800

  24014781.195 6  24014789.887 6
 126198513.282 6  98336470.801 4
                  24014790.242 4        40.800          25.000

  22287617.820 7
 117122177.994 7  91264068.976 6
                  22287623.266 6        45.900          37.600

  24294797.953 6  24294807.531 6  24294807.203 7
 127669921.652 6  99483148.259 3  95337982.175 7
                  24294807.625 3        38.800          22.500          43.600

 18 12  4  0  7  0.0000000  0  9G02G05G06G12G13G15G17G19G25
  21662670.328 7
 113838057.516 7  88705030.578 6
                  21662674.301 6        47.200          40.600

  20716939.430 8  20716945.715 7
 108868225.178 8  84832417.511 7
                  20716945.793 7        50.300          42.500

  22227402.094 7  22227412.277 7  22227412.230 8
 116805668.012 7  91017521.140 5  87225087.606 8
                  22227411.566 5        42.200          32.700          48.700

  22963231.180 7  22963237.613 6
 120672620.512 7  94030603.754 4
                  22963237.742 4        42.100          27.900

  22465293.750 7
 118055948.825 7  91991649.524 4
                  22465300.109 4        43.400          29.300

  24998923.875 6  24998931.910 6
 131370234.165 6 102366444.296 3
                  24998932.379 3        39.500          19.300

  24034127.461 6  24034136.523 6
 126300177.506 6  98415689.535 3
                  24034136.910 3        39.900          22.500

  22303894.367 7
 117207713.158 7  91330719.707 6
                  22303900.094 6        44.900          37.900

  24296625.734 6  24296635.355 6  24296635.355 7
 127679524.407 6  99490630.927 3  95345153.029 7
                  24296635.016 3        40.500          22.600          43.900

 18 12  4  0  7 30.0000000  0  9G02G05G06G12G13G15G17G19G25
  21657166.672 7
 113809135.033 7  88682493.566 6
                  21657170.883 6        47.000          40.400

  20716822.313 8  20716828.691 8
 108867611.873 8  84831939.600 7
                  20716828.754 7        50.000          43.000

  22232416.813 6  22232427.016 7  22232426.879 8
 116832019.301 6  91038054.623 5  87244765.527 8
                  22232426.793 5        41.900          33.300          49.000

  22972774.844 7  22972781.852 6
 120722770.998 7  94069682.019 4
                  22972781.730 4        43.000          28.300

  22446916.188 7
 117959375.357 7  91916397.478 5
                  22446922.895 5        43.600          30.400

  24977213.156 6  24977220.391 5
 131256144.060 6 102277542.850 3
                  24977220.793 3        38.600          18.300

  24053512.594 6  24053521.156 6
 126402046.735 6  98495068.010 4
                  24053521.996 4        41.100          25.000

  22320235.594 7
 117293587.638 7  91397634.850 6
                  22320241.137 6        44.400          36.600

  24298534.391 6  24298544.426 6  24298543.391 7
 127689555.099 6  99498447.005 4  95352643.436 7
                  24298543.070 4        39.100          24.600          43.400

 18 12  4  0  8  0.0000000  0 10G02G05G06G12G13G15G17G19G25G29
  21651671.258 7
 113780257.995 7  88659991.971 6
                  21651675.188 6        46.800          40.200

  20716767.672 8  20716773.695 8
 108867322.469 8  84831714.081 7
                  20716773.941 7        50.300          42.900

  22237458.734 7  22237468.469 7  22237468.715 8
 116858514.926 7  91058700.559 5  87264551.207 8
                  22237468.652 5        42.200          33.300          48.400

  22982375.758 7  22982382.426 6
 120773224.915 7  94108996.738 4
                  22982382.324 4        42.800          28.300

  22428576.023 7
 117862996.041 7  91841296.710 5
                  22428582.570 5        43.400          31.100

  24955498.320 6  24955505.352 5
 131142031.149 6 102188623.688 3
                  24955505.723 3        38.300          18.300

  24072936.047 6  24072945.633 6
 126504118.099 6  98574603.997 3
                  24072945.516 3        40.800          23.000

  22336641.109 7
 117379799.199 7  91464812.653 6
                  22336646.527 6        44.500          36.500

  24300524.180 6  24300534.043 6  24300534.066 7
 127700011.708 6  99506594.979 3  95360451.922 7
                  24300533.961 3        38.400          23.000          44.700

  24754337.586 5
 130084917.545 5
                                        30.300

 18 12  4  0  8 30.0000000  0 10G02G05G06G12G13G15G17G19G25G29
  21646185.133 7
 113751428.137 7  88637527.130 6
                  21646189.242 6        46.900          40.900

  20716773.930 8  20716780.379 8
 108867355.814 8  84831740.048 7
                  20716780.230 7        50.200          43.200

  22242528.406 6  22242538.355 7  22242538.285 8
 116885156.433 6  91079460.163 5  87284445.825 8
                  22242538.629 5        41.900          33.300          48.600

  22992033.992 7  22992040.930 6
 120823979.435 7  94148545.661 4
                  22992040.734 4        42.600          29.700

  22410272.492 7
 117766814.175 7  91766349.810 5
                  22410279.578 5        43.100          30.000

  24933778.758 6  24933786.656 5
 131027898.385 6 102099689.098 3
                  24933787.539 3        38.100          19.900

  24092398.039 6  24092407.383 6
 126606389.870 6  98654296.136 3
                  24092407.184 3        39.400          22.200

  22353110.313 7
 117466346.441 7  91532252.014 6
                  22353116.086 6        44.400          36.800

  24302594.820 6  24302604.172 6  24302604.402 7
 127710893.096 6  99515073.924 3  95368577.588 7
                  24302604.047 3        39.500          22.300          45.600

  24734316.594 4  24734326.082 5
 129979713.802 4
                                        28.900

 18 12  4  0  9  0.0000000  0 10G02G05G06G12G13G15G17G19G25G29
  21640708.570 7
 113722647.679 7  88615100.798 6
                  21640712.461 6        46.800          40.800

  20716841.672 8  20716847.961 7
 108867711.176 8  84832016.951 7
                  20716847.984 7        50.200          42.800

  22247626.242 7  22247636.625 7  22247636.137 8
 116911945.670 7  91100334.884 5  87304450.772 8
                  22247636.219 5        42.000          33.600          48.800

  23001748.992 7  23001755.754 6
 120875032.491 7  94188327.248 4
                  23001755.750 4        43.200          29.000

  22392008.813 7
 117670833.682 7  91691559.820 5
                  22392015.156 5        43.700          31.200

  24912057.367 6  24912065.953 6
 130913748.770 6 102010741.297 3
                  24912065.867 3        39.200          21.100

  24111897.375 6  24111906.770 6
 126708860.773 6  98734143.425 3
                  24111906.859 3        39.800          22.200

  22369643.953 7
 117553228.079 7  91599951.949 6
                  22369649.398 6        44.200          36.800

  24304745.820 6  24304756.121 6  24304755.719 7
 127722198.484 6  99523883.317 3  95377019.884 7
                  24304755.699 3        39.600          22.900          45.700

  24714310.273 4  24714317.949 5
 129874569.198 4
                                        28.000

 18 12  4  0  9 30.0000000  0 10G02G05G06G12G13G15G17G19G25G29
  21635241.609 7
 113693917.703 7  88592713.805 6
                  21635245.242 6        46.700          40.800

  20716970.344 8  20716976.668 7
 108868387.073 8  84832543.618 7
                  20716976.652 7        50.700          43.000

  22252753.039 7  22252762.453 7  22252762.074 8
 116938883.347 7  91121325.243 5  87324566.531 8
                  22252762.027 5        42.800          33.400          48.500

  23011521.211 7  23011527.480 6
 120926381.369 7  94228339.298 4
                  23011527.352 4        43.900          29.800

  22373782.664 7
 117575057.290 7  91616928.847 5
                  22373789.367 5        43.500          30.800

  24890332.641 6  24890341.000 6
 130799584.543 6 101921782.151 3
                  24890341.672 3        37.100          19.300

  24131434.320 6  24131442.816 5
 126811527.924 6  98814143.666 3
                  24131444.082 3        39.800          21.500

  22386239.945 7
 117640441.979 7  91667910.788 6
                  22386245.969 6        43.900          36.500

  24306977.797 6  24306987.445 6  24306986.828 7
 127733925.856 6  99533021.486 4  95385777.304 7
                  24306987.117 4        39.900          25.800          44.900

  24694313.344 4  24694320.523 5

                                        25.300

 18 12  4  0 10  0.0000000  0 10G02G05G06G12G13G15G17G19G25G29
  21629784.219 7
 113665239.426 7  88570367.084 6
                  21629787.867 6        46.700          40.400

  20717159.586 8  20717165.727 8
 108869381.482 8  84833318.472 7
                  20717165.813 7        50.300          42.900

  22257906.945 7  22257917.355 7  22257916.906 8
 116965970.373 7  91142431.984 5  87344793.796 8
                  22257917.348 5        42.800          34.200          48.500

  23021347.195 7  23021354.676 6
 120978022.590 7  94268579.194 4
                  23021354.320 4        42.700          29.000

  22355596.734 7
 117479487.735 7  91542459.066 5
                  22355603.520 5        44.000          31.800

  24868604.695 6  24868613.820 6
 130685407.640 6 101832813.122 2
                  24868614.457 2        36.700          17.800

  24151007.758 6  24151017.551 6
 126914388.747 6  98894294.802 3
                  24151017.652 3        38.100          20.900

  22402898.836 7
 117727985.817 7  91736126.709 5
                  22402905.137 5        44.100          35.300

  24309289.555 6  24309299.027 6  24309299.031 7
 127746073.447 6  99542487.070 4  95394848.475 7
                  24309298.934 4        41.600          27.100          46.000

  24674329.703 4  24674336.703 5
 129664466.829 4
                                        26.800

 18 12  4  0 10 30.0000000  0  9G02G05G06G12G13G15G17G19G25
  21624336.477 7
 113636613.769 7  88548061.355 6
                  21624340.941 6        46.800          40.900

  20717408.930 8  20717414.988 8
 108870692.788 8  84834340.260 7
                  20717415.445 7        50.400          43.200

  22263090.203 7  22263100.492 7  22263099.777 8
 116993207.821 7  91163655.951 5  87365133.438 8
                  22263099.969 5        43.000          34.400          48.300

  23031230.063 7  23031236.180 6
 121029953.314 7  94309044.647 5
                  23031236.559 5        43.700          30.200

  22337450.250 7
 117384128.001 7  91468152.790 5
                  22337457.305 5        43.800          31.800

  24846875.656 6  24846884.605 6
 130571220.589 6 101743836.197 3
                  24846885.215 3        36.300          19.600

  24170618.227 6  24170627.672 6
 127017441.072 6  98974595.183 3
                  24170628.281 3        37.900          20.100

  22419620.656 7
 117815857.750 7  91804598.299 6
                  22419626.441 6        44.000          36.100

  24311680.508 7  24311690.324 6  24311689.625 7
 127758639.408 7  99552278.701 4  95404232.135 7
                  24311690.004 4        42.200          25.800          45.200

 18 12  4  0 11  0.0000000  0  9G02G05G06G12G13G15G17G19G25
  21618899.711 7
 113608042.406 7  88525797.940 6
                  21618903.738 6        46.600          40.500

  20717718.727 8  20717725.023 8
 108872319.483 8  84835607.794 7
                  20717724.785 7        50.600          42.700

  22268302.000 7  22268312.051 7  22268312.328 8
 117020596.712 7  91184997.906 5  87385586.127 8
                  22268312.047 5        43.000          34.400          49.000

  23041166.445 7  23041173.082 6
 121082170.270 7  94349733.153 4
                  23041173.031 4        43.900          29.600

  22319344.469 7
 117288981.196 7  91394012.411 5
                  22319351.629 5        44.000          32.700

  24825145.234 6  24825154.004 6
 130457025.970 6 101654853.382 3
                  24825154.746 3        37.900          20.400

  24190264.609 6  24190274.117 6
 127120682.344 6  99055042.764 3
                  24190274.539 3        38.400          20.100

  22436404.250 7
 117904055.579 7  91873323.842 5
                  22436409.930 5        43.900          35.900

  24314151.055 7  24314160.352 6  24314161.113 7
 127771622.079 7  99562395.024 4  95413926.944 7
                  24314160.582 4        42.700          26.000          45.300

 18 12  4  0 11 30.0000000  0  9G02G05G06G12G13G15G17G19G25
  21613474.102 7
 113579526.822 7  88503577.997 6
                  21613477.480 6        46.900          40.900

  20718087.578 8  20718093.938 8
 108874259.864 8  84837119.779 7
                  20718094.168 7        50.100          42.500

  22273543.320 7  22273552.930 7  22273553.000 8
 117048137.964 7  91206458.564 5  87406152.590 8
                  22273553.008 5        42.700          33.400          48.400

  23051157.078 7  23051163.637 6
 121134670.546 7  94390642.409 5
                  23051163.895 5        44.000          30.700

  22301279.664 7
 117194050.108 7  91320040.145 5
                  22301286.563 5        44.200          32.700

  24803414.375 6  24803423.160 6
 130342826.111 6 101565866.444 3
                  24803423.105 3        37.900          21.100

  24209946.953 6  24209956.215 6
 127224110.020 6  99135635.588 3
                  24209956.023 3        39.400          21.500

  22453249.023 7
 117992577.105 7  91942301.626 5
                  22453255.016 5        43.700          35.400

  24316700.820 6  24316710.574 6  24316710.250 7
 127785019.574 6  99572834.619 4  95423931.540 7
                  24316710.023 4        41.600          26.100          44.500

 18 12  4  0 12  0.0000000  0 10G02G05G06G12G13G15G17G19G25G29
  21608057.867 7
 113551068.289 7  88481402.522 6
                  21608061.867 6        46.500          40.400

  20718516.555 8  20718522.738 8
 108876512.993 8  84838875.459 7
                  20718522.734 7        50.000          42.800

  22278812.984 7  22278823.313 7  22278823.301 8
 117075832.975 7  91228039.064 5  87426833.898 8
                  22278823.156 5        43.000          33.800          48.400

  23061201.156 7  23061207.734 6
 121187451.708 7  94431770.532 5
                  23061207.281 5        45.200          31.700

  22283256.711 7
 117099338.214 7  91246238.670 5
                  22283263.180 5        44.400          31.800

  24781681.453 5  24781690.836 6
 130228623.304 5 101476877.306 3
                  24781690.887 3        34.700          19.600

  24229664.133 6  24229673.176 6
 127327722.058 6  99216372.111 3
                  24229673.023 3        38.700          20.900

  22470155.508 7
 118081420.737 7  92011530.381 5
                  22470161.320 5        43.800          35.500

  24319327.883 6  24319338.543 6  24319338.887 7
 127798830.413 6  99583596.279 4  95434244.812 7
                  24319338.277 4        40.200          24.100          45.300

  24594521.086 5  24594528.418 5
 129245065.418 5
                                        32.600

 18 12  4  0 12 30.0000000  0 10G02G05G06G12G13G15G17G19G25G29
  21602653.844 7
 113522666.442 7  88459271.218 6
                  21602657.418 6        46.800          40.000

  20719003.766 8  20719010.281 8
 108879075.257 8  84840872.030 7
                  20719010.441 7        50.200          42.500

  22284112.102 7  22284122.355 7  22284122.742 8
 117103681.053 7  91249738.838 5  87447629.497 8
                  22284121.828 5        43.000          34.300          49.100

  23071297.492 7  23071304.156 7
 121240509.070 7  94473113.891 5
                  23071304.918 5        44.300          31.700

  22265275.555 7
 117004846.571 7  91172608.831 5
                  22265282.473 5        44.400          32.900

  24759949.664 6  24759957.930 6
 130114418.443 6 101387886.506 3
                  24759957.957 3        36.800          20.600

  24249414.922 6  24249423.648 6
 127431514.329 6  99297249.038 3
                  24249424.195 3        38.900          21.700

  22487122.281 7
 118170582.535 7  92081007.050 5
                  22487128.375 5        43.200          35.200

  24322035.750 6  24322044.566 6  24322044.230 7
 127813051.214 6  99594677.413 4  95444864.219 7
                  24322044.680 4        40.800          26.500          44.900

  24574604.383 5  24574611.297 5
 129140399.518 5 100628921.779 2
                  24574610.797 2        35.400          17.800

 18 12  4  0 13  0.0000000  0 10G02G05G06G12G13G15G17G19G25G29
  21597260.172 7
 113494324.350 7  88437186.460 6
                  21597264.363 6        46.700          40.700

  20719550.648 8  20719557.051 8
 108881946.737 8  84843109.540 7
                  20719556.973 7        51.000          42.600

  22289441.508 7  22289451.688 7  22289451.680 8
 117131684.728 7  91271559.833 5  87468541.264 8
                  22289451.695 5        43.300          34.500          48.200

  23081446.063 7  23081452.680 7
 121293840.680 7  94514670.942 5
                  23081452.961 5        44.400          31.400

  22247337.156 7
 116910579.991 7  91099154.347 5
                  22247344.141 5        44.700          34.000

  24738217.617 6  24738225.488 6
 130000215.702 6 101298897.289 3
                  24738226.066 3        36.900          20.100

  24269200.102 6  24269209.277 6
 127535486.108 6  99378265.849 3
                  24269209.422 3        39.400          21.300

  22504150.289 7
 118260062.135 7  92150731.367 5
                  22504155.617 5        44.500          35.400

  24324818.484 6  24324828.969 6  24324828.672 7
 127827681.645 6  99606077.725 4  95455789.490 7
                  24324828.734 4        39.200          25.500          45.500

  24554702.438 6  24554707.961 5
 129035812.194 6 100547425.177 2
                  24554708.203 2        37.200          16.300

 18 12  4  0 13 30.0000000  0 10G02G05G06G12G13G15G17G19G25G29
  21591878.633 7
 113466044.954 7  88415150.540 6
                  21591882.910 6        46.800          39.900

  20720155.898 8  20720162.176 8
 108885127.295 8  84845587.879 7
                  20720162.371 7        50.400          42.600

  22294800.555 7  22294810.910 7  22294810.246 8
 117159846.531 7  91293504.059 5  87489571.136 8
                  22294810.699 5        42.900          34.800          48.100

  23091646.984 7  23091653.664 7
 121347445.542 7  94556440.922 5
                  23091653.574 5        44.400          32.100

  22229441.992 7
 116816543.068 7  91025878.831 5
                  22229449.633 5        44.100          33.800

  24716486.563 5  24716495.090 6
 129886018.660 5 101209912.603 3
                  24716494.844 3        35.800          20.400

  24289018.820 6  24289028.840 6
 127639636.399 6  99459421.717 3
                  24289029.145 3        38.600          20.100

  22521237.336 7
 118349858.762 7  92220702.701 5
                  22521243.293 5        43.400          34.700

  24327680.930 6  24327690.914 6  24327690.664 7
 127842721.274 6  99617796.920 3  95467020.358 7
                  24327690.473 3        38.800          22.800          45.300

  24534816.078 6  24534822.332 5
 128931307.051 6 100465992.587 2
                  24534822.340 2        38.000          16.900

 18 12  4  0 14  0.0000000  0 10G02G05G06G12G13G15G17G19G25G29
  21586509.305 7
 113437828.552 7  88393163.731 6
                  21586513.496 6        46.500          40.500

  20720819.391 8  20720825.770 8
 108888614.277 8  84848304.989 7
                  20720825.574 7        50.100          42.600

  22300189.648 7  22300199.852 7  22300199.688 8
 117188166.602 7  91315571.594 5  87510719.190 8
                  22300199.891 5        43.100          34.600          48.200

  23101898.867 7  23101905.688 6
 121401319.470 7  94598420.560 5
                  23101905.660 5        43.900          31.200

  22211592.359 7
 116722737.422 7  90952783.526 5
                  22211599.246 5        44.700          34.500

  24694756.523 5  24694765.930 6
 129771828.861 5 101120933.550 3
                  24694765.953 3        35.300          20.600

  24308872.867 6  24308881.156 6
 127743961.682 6  99540713.966 3
                  24308881.723 3        38.400          19.300

  22538385.516 7
 118439969.499 7  92290918.807 5
                  22538390.855 5        43.900          34.700

  24330620.289 6  24330630.156 6  24330630.074 7
 127858167.413 6  99629832.816 3  95478554.757 7
                  24330630.242 3        37.700          22.500          44.600

  24514944.820 6  24514951.117 5
 128826885.588 6 100384625.213 2
                  24514951.543 2        37.400          16.900

 18 12  4  0 14 30.0000000  0 10G02G05G06G12G13G15G17G19G25G29
  21581152.156 7
 113409676.258 7  88371226.870 6
                  21581156.082 6        46.800          40.400

  20721541.133 8  20721546.996 8
 108892405.802 8  84851259.411 7
                  20721547.469 7        50.600          42.400

  22305608.805 7  22305619.020 7  22305619.270 8
 117216645.606 7  91337762.992 5  87531985.935 8
                  22305619.156 5        42.900          34.600          48.800

  23112201.070 7  23112207.824 6
 121455459.063 7  94640607.207 5
                  23112207.840 5        45.000          31.300

  22193785.852 7
 116629165.744 7  90879870.536 5
                  22193792.754 5        45.200          34.200

  24673029.516 6  24673037.680 6
 129657648.396 6 101031961.745 3
                  24673038.230 3        37.100          21.700

  24328758.086 6  24328767.004 5
 127848459.513 6  99622140.650 3
                  24328767.227 3        38.500          19.000

  22555592.141 7
 118530391.932 7  92361377.800 5
                  22555597.375 5        43.800          34.200

  24333637.039 6  24333646.129 6  24333646.039 7
 127874017.841 6  99642183.759 4  95490391.100 7
                  24333645.938 4        37.900          25.100          44.700

  24495089.609 6  24495096.324 5
 128722550.492 6 100303325.104 2
                  24495096.930 2        36.300          17.400

 18 12  4  0 15  0.0000000  0 10G02G05G06G12G13G15G17G19G25G29
  21575807.711 7
 113381590.984 7  88349342.252 6
                  21575811.531 6        46.800          40.200

  20722320.328 8  20722326.438 8
 108896501.806 8  84854451.092 7
                  20722326.586 7        50.700          43.000

  22311058.852 7  22311069.301 7  22311069.371 8
 117245285.876 7  91360080.034 5  87553373.106 8
                  22311069.051 5        43.700          34.900          48.200

  23122553.953 7  23122561.164 7
 121509862.709 7  94682999.618 5
                  23122561.383 5        44.700          31.900

  22176025.211 7
 116535832.639 7  90807143.447 5
                  22176032.172 5        45.500          34.900

  24651304.742 6  24651311.891 6
 129543481.055 6 100943000.196 3
                  24651312.391 3        37.700          20.600

  24348675.977 5  24348685.125 5
 127953128.395 5  99703700.647 2
                  24348685.395 2        35.600          16.300

  22572858.133 7
 118621125.124 7  92432078.929 5
                  22572863.523 5        43.800          34.800

  24336730.148 6  24336739.895 6  24336738.758 7
 127890272.068 6  99654849.371 3  95502528.936 7
                  24336739.102 3        37.600          22.000          43.900

  24475252.500 5  24475260.473 5
 128618305.208 5 100222095.046 2
                  24475260.109 2        34.500          16.900

 18 12  4  0 15 30.0000000  0 10G02G05G06G12G13G15G17G19G25G29
  21570475.891 7
 113353572.980 7  88327510.027 6
                  21570480.547 6        46.500          40.800

  20723157.383 8  20723163.648 8
 108900899.544 8  84857877.885 7
                  20723163.480 7        50.800          43.000

  22316540.422 7  22316549.969 7  22316550.234 8
 117274087.508 7  91382522.783 5  87574880.720 8
                  22316549.977 5        44.700          35.100          48.800

  23132956.461 7  23132962.680 7
 121564526.221 7  94725594.517 5
                  23132963.102 5        43.800          30.900

  22158310.234 7
 116442739.907 7  90734603.661 5
                  22158316.910 5        45.500          34.500

  24629580.992 6  24629590.176 6
 129429328.000 6 100854049.756 3
                  24629589.438 3        36.300          20.400

  24368626.648 5  24368635.258 5
 128057965.519 5  99785391.786 2
                  24368635.477 2        35.800          16.900

  22590182.984 7
 118712166.248 7  92503020.015 5
                  22590188.098 5        43.700          34.500

  24339898.906 6  24339908.441 6  24339908.559 7
 127906927.176 6  99667827.331 3  95514966.152 7
                  24339908.703 3        37.300          22.000          43.900

  24455432.914 5  24455439.746 5
 128514151.388 5 100140936.160 2
                  24455440.340 2        34.600          16.300

 18 12  4  0 16  0.0000000  0 10G02G05G06G12G13G15G17G19G25G29
  21565157.094 7
 113325623.680 7  88305731.339 6
                  21565161.598 6        47.000          40.600

  20724051.266 8  20724057.598 8
 108905596.972 8  84861538.218 7
                  20724057.719 7        50.400          43.100

  22322051.266 7  22322062.047 7  22322061.254 8
 117303051.237 7  91405091.882 5  87596509.435 8
                  22322061.648 5        44.500          35.600          48.400

  23143406.805 7  23143414.195 7
 121619446.595 7  94768389.554 5
                  23143414.090 5        43.900          30.900

  22140640.820 7
 116349890.139 7  90662253.188 5
                  22140648.441 5        45.500          34.000

  24607862.000 6  24607871.391 6
 129315191.707 6 100765112.400 3
                  24607870.914 3        37.600          22.300

  24388607.875 5  24388615.371 5
 128162967.798 5  99867211.582 2
                  24388616.875 2        35.600          14.800

  22607565.703 7
 118803512.631 7  92574198.952 5
                  22607570.723 5        44.100          34.500

  24343144.586 6  24343154.176 6  24343153.848 7
 127923980.931 6  99681115.952 3  95527701.068 7
                  24343153.742 3        38.200          22.000          43.800

  24435631.430 5  24435638.813 5
 128410091.167 5 100059850.311 2
                  24435638.688 2        35.000          17.400

 18 12  4  0 16 30.0000000  0 10G02G05G06G12G13G15G17G19G25G29
  21559852.141 7
 113297744.915 7  88284007.627 6
                  21559856.234 6        46.700          40.000

  20725001.898 8  20725008.270 8
 108910593.368 8  84865431.496 7
                  20725008.273 7        51.300          42.900

  22327594.992 7  22327604.840 7  22327604.578 8
 117332178.815 7  91427788.661 5  87618260.507 8
                  22327604.418 5        44.900          35.500          48.500

  23153906.641 7  23153913.156 7
 121674621.131 7  94811382.671 5
                  23153913.801 5        44.900          31.800

  22123019.461 7
 116257287.295 7  90590095.137 5
                  22123026.684 5        45.200          34.300

  24586146.578 6  24586154.621 6
 129201075.393 6 100676190.606 3
                  24586154.688 3        38.600          22.200

  24408619.547 5  24408628.578 5
 128268133.272 5  99949158.486 2
                  24408629.102 2        33.100          14.800

  22625005.789 7
 118895163.022 7  92645614.777 5
                  22625011.797 5        43.700          34.000

  24346465.469 6  24346475.336 6  24346475.082 7
 127941432.262 6  99694714.373 3  95540732.871 7
                  24346475.078 3        38.600          23.000          43.900

  24415847.273 5  24415854.758 5
 128306127.772 5  99978839.931 2
                  24415855.637 2        35.500          17.400

 18 12  4  0 17  0.0000000  0 10G02G05G06G12G13G15G17G19G25G29
  21554560.938 7
 113269937.872 7  88262339.802 6
                  21554564.547 6        47.300          40.900

  20726009.047 8  20726015.543 8
 108915886.806 8  84869556.244 7
                  20726015.531 7        51.100          42.700

  22333168.836 7  22333178.945 7  22333178.605 8
 117361470.972 7  91450613.673 5  87640134.464 8
                  22333178.547 5        44.300          34.600          48.800

  23164453.523 7  23164460.547 6
 121730046.908 7  94854571.538 5
                  23164460.375 5        43.800          31.400

  22105446.023 7
 116164934.210 7  90518131.699 5
                  22105452.488 5        45.700          35.200

  24564434.508 6  24564443.043 6
 129086980.964 6 100587285.859 3
                  24564442.672 3        37.900          21.100

  24428662.836 5  24428673.238 5
 128373459.427 5
                                        33.500

  22642503.859 7
 118987114.877 7  92717265.504 5
                  22642509.395 5        43.700          35.000

  24349861.664 6  24349871.156 6  24349870.887 7
 127959278.889 6  99708620.783 3  95554059.869 7
                  24349871.098 3        38.400          22.300          42.100

  24396083.227 6  24396089.313 5
 128202263.475 6  99897906.725 2
                  24396090.430 2        36.800          16.900

 18 12  4  0 17 30.0000000  0 10G02G05G06G12G13G15G17G19G25G29
  21549283.695 7
 113242203.589 7  88240728.650 6
                  21549287.172 6        46.700          40.200

  20727072.656 8  20727079.156 7
 108921475.046 8  84873910.701 7
                  20727078.695 7        50.700          42.300

  22338774.133 7  22338784.477 7  22338784.457 8
 117390928.382 7  91473567.489 5  87662131.874 8
                  22338784.348 5        44.100          34.600          48.800

  23175048.000 7  23175055.680 7
 121785720.638 7  94897953.603 5
                  23175055.664 5        44.000          32.300

  22087919.297 7
 116072833.215 7  90446364.697 5
                  22087926.156 5        45.700          35.200

  24542728.117 6  24542736.113 6
 128972910.424 6 100498399.746 3
                  24542736.457 3        38.300          22.200

  24448735.547 4  24448745.125 4
 128478943.829 4
                                        27.600

  22660058.641 7
 119079365.763 7  92789149.241 5
                  22660064.012 5        43.900          34.000

  24353331.797 6  24353341.914 6  24353342.527 7
 127977518.432 6  99722833.353 3  95567680.235 7
                  24353341.418 3        38.100          21.800          42.500

  24376337.930 6  24376344.285 5
 128098500.538 6  99817052.480 2
                  24376344.207 2        37.600          17.400

 18 12  4  0 18  0.0000000  0  9G02G05G06G12G13G15G19G25G29
  21544020.031 7
 113214544.828 7  88219176.362 6
                  21544024.148 6        47.000          40.600

  20728192.023 8  20728198.410 8
 108927357.578 8  84878494.493 7
                  20728198.320 7        50.500          42.400

  22344411.641 7  22344422.359 7  22344421.938 8
 117420553.119 7  91496651.665 5  87684254.191 8
                  22344422.094 5        44.500          34.700          49.200

  23185689.906 7  23185696.027 6
 121841639.823 7  94941526.948 5
                  23185695.777 5        44.000          30.900

  22070441.867 7
 115980988.517 7  90374797.388 5
                  22070448.781 5        45.800          35.200

  24521026.781 6  24521035.047 6
 128858867.812 6 100409535.400 3
                  24521034.793 3        38.800          22.800

  22677670.391 7
 119171914.464 7  92861265.041 5
                  22677675.602 5        43.800          34.000

  24356877.906 6  24356887.145 6  24356887.055 6
 127996150.021 6  99737351.420 3  95581593.401 6
                  24356887.500 3        38.500          21.500          41.900

  24356612.242 6  24356618.313 5
 127994841.959 6  99736279.559 2
                  24356618.879 2        36.700          16.900

 18 12  4  0 18 30.0000000  0  9G02G05G06G12G13G15G19G25G29
  21538771.180 7
 113186962.641 7  88197683.738 6
                  21538775.211 6        47.100          40.400

  20729367.063 8  20729373.414 8
 108933532.897 8  84883306.415 7
                  20729373.445 7        51.700          42.800

  22350080.930 7  22350091.207 7  22350090.699 8
 117450345.813 7  91519866.733 5  87706501.979 8
                  22350091.508 5        44.100          34.700          48.400

  23196376.570 7  23196383.586 6
 121897801.286 7  94985289.075 5
                  23196383.656 5        44.100          31.500

  22053013.547 7
 115889402.632 7  90303431.769 5
                  22053020.348 5        45.800          34.900

  24499330.328 6  24499338.820 6
 128744854.613 6 100320693.970 3
                  24499338.773 3        38.700          22.500

  22695337.570 7
 119264758.406 7  92933610.901 5
                  22695343.289 5        44.300          34.000

  24360497.711 6  24360507.164 6  24360506.613 7
 128015171.324 6  99752173.210 3  95595797.558 7
                  24360506.719 3        38.100          21.700          42.600

  24336907.477 6  24336913.156 5
 127891290.944 6  99655590.421 2
                  24336913.398 2        37.500          16.300

 18 12  4  0 19  0.0000000  0  9G02G05G06G12G13G15G19G25G29
  21533537.539 7
 113159458.419 7  88176251.868 6
                  21533541.445 6        47.200          41.100

  20730597.547 8  20730603.695 7
 108939998.985 8  84888344.913 7
                  20730603.945 7        50.500          42.600

  22355782.945 7  22355792.695 7  22355793.035 8
 117480307.475 7  91543213.484 5  87728875.919 8
                  22355792.715 5        44.500          34.700          48.800

  23207109.367 7  23207115.555 6
 121954201.607 7  95029237.327 5
                  23207116.082 5        44.100          30.400

  22035635.172 7
 115798078.278 7  90232269.924 5
                  22035641.973 5        45.800          35.100

  24477640.484 6  24477648.367 6
 128630873.447 6 100231877.469 3
                  24477648.383 3        38.900          22.500

  22713061.523 7
 119357895.153 7  93006184.938 5
                  22713066.773 5        44.200          35.000

  24364190.750 6  24364201.023 6  24364200.172 7
 128034580.238 6  99767297.012 3  95610291.220 7
                  24364200.629 3        37.600          21.100          43.400

  24317223.375 6  24317229.309 5
 127787849.308 6  99574986.536 2
                  24317229.152 2        37.100          17.800

